[
  {
    "name": "Apex Boulders",
    "city": "Groningen",
    "province": "Groningen",
    "latitude": 53.2161148,
    "longitude": 6.536471,
    "visited": false,
    "rating": "N/A"
  },
  {
    "name": "Be Boulder",
    "city": "Amsterdam",
    "province": "Noord-Holland",
    "latitude": 52.3395626,
    "longitude": 4.8418298,
    "visited": true,
    "rating": 2
  },
  {
    "name": "Beest Boulders Amsterdam",
    "city": "Amsterdam",
    "province": "Noord-Holland",
    "latitude": 52.3812736,
    "longitude": 4.8596409,
    "visited": false,
    "rating": "N/A"
  },
  {
    "name": "Beest Boulders Breda",
    "city": "Breda",
    "province": "Noord-Brabant",
    "latitude": 51.5949122,
    "longitude": 4.7551966,
    "visited": false,
    "rating": "N/A"
  },
  {
    "name": "Beest Boulders Den Haag HS",
    "city": "Den Haag",
    "province": "Zuid-Holland",
    "latitude": 52.069385,
    "longitude": 4.3209697,
    "visited": true,
    "rating": 6
  },
  {
    "name": "Beest Boulders Den Haag Centrum",
    "city": "Den Haag",
    "province": "Zuid-Holland",
    "latitude": 52.0763455,
    "longitude": 4.3084002,
    "visited": true,
    "rating": 10
  },
  {
    "name": "Beest Boulders Rotterdam",
    "city": "Rotterdam",
    "province": "Zuid-Holland",
    "latitude": 51.9273953,
    "longitude": 4.4737071,
    "visited": true,
    "rating": 6
  },
  {
    "name": "Beta Boulders",
    "city": "Amsterdam",
    "province": "Noord-Holland",
    "latitude": 52.3442045,
    "longitude": 4.8534011,
    "visited": false,
    "rating": "N/A"
  },
  {
    "name": "Bossche Boulders",
    "city": "Den Bosch",
    "province": "Noord-Brabant",
    "latitude": 51.6959284,
    "longitude": 5.276932,
    "visited": false,
    "rating": "N/A"
  },
  {
    "name": "Boulder Neoliet Rotterdam",
    "city": "Rotterdam",
    "province": "Zuid-Holland",
    "latitude": 51.9083491,
    "longitude": 4.4312261,
    "visited": true,
    "rating": 8
  },
  {
    "name": "Boulder Neoliet Tilburg",
    "city": "Tilburg",
    "province": "Noord-Brabant",
    "latitude": 51.5657197,
    "longitude": 5.1113669,
    "visited": false,
    "rating": "N/A"
  },
  {
    "name": "Boulder Neoliet Veldhoven",
    "city": "Veldhoven",
    "province": "Noord-Brabant",
    "latitude": 51.4251821,
    "longitude": 5.4149687,
    "visited": false,
    "rating": "N/A"
  },
  {
    "name": "Bouldercentrum Delfts Bleau",
    "city": "Delft",
    "province": "Zuid-Holland",
    "latitude": 51.9948255,
    "longitude": 4.3642833,
    "visited": true,
    "rating": 8
  },
  {
    "name": "Bouldergym BAZ",
    "city": "Zaandam",
    "province": "Noord-Holland",
    "latitude": 52.4606986,
    "longitude": 4.8125532,
    "visited": false,
    "rating": "N/A"
  },
  {
    "name": "Boulderhal Block013",
    "city": "Tilburg",
    "province": "Noord-Brabant",
    "latitude": 51.5771628,
    "longitude": 5.0910545,
    "visited": false,
    "rating": "N/A"
  },
  {
    "name": "Boulderhal Bruut",
    "city": "Breda",
    "province": "Noord-Brabant",
    "latitude": 51.5981948,
    "longitude": 4.755504,
    "visited": false,
    "rating": "N/A"
  },
  {
    "name": "Boulderhal de Campus",
    "city": "Den Haag",
    "province": "Zuid-Holland",
    "latitude": 52.0495514,
    "longitude": 4.2546388,
    "visited": true,
    "rating": 8
  },
  {
    "name": "Boulderhal de Fabriek Haarlem",
    "city": "Haarlem",
    "province": "Noord-Holland",
    "latitude": 52.3919867,
    "longitude": 4.6470941,
    "visited": false,
    "rating": "N/A"
  },
  {
    "name": "Boulderhal de Fabriek Hoofddorp",
    "city": "Hoofddorp",
    "province": "Noord-Holland",
    "latitude": 52.3135598,
    "longitude": 4.6908056,
    "visited": false,
    "rating": "N/A"
  },
  {
    "name": "Boulderhal Energiehaven",
    "city": "Utrecht",
    "province": "Utrecht",
    "latitude": 52.1001073,
    "longitude": 5.0700532,
    "visited": false,
    "rating": "N/A"
  },
  {
    "name": "Boulderhal Krachtstof",
    "city": "Leiden",
    "province": "Zuid-Holland",
    "latitude": 52.1585093,
    "longitude": 4.5115171,
    "visited": true,
    "rating": 6
  },
  {
    "name": "Boulderhal Kunststof",
    "city": "Leiden",
    "province": "Zuid-Holland",
    "latitude": 52.1450956,
    "longitude": 4.4809743,
    "visited": true,
    "rating": "4"
  },
  {
    "name": "Boulderhal Roest",
    "city": "Zwolle",
    "province": "Overijssel",
    "latitude": 52.4986099,
    "longitude": 6.1188089,
    "visited": false,
    "rating": "N/A"
  },
  {
    "name": "Boulderhal Sendmast",
    "city": "Alkmaar",
    "province": "Noord-Holland",
    "latitude": 52.6172431,
    "longitude": 4.7669382,
    "visited": false,
    "rating": "N/A"
  },
  {
    "name": "Boulderhal Sterk",
    "city": "Utrecht",
    "province": "Utrecht",
    "latitude": 52.0763815,
    "longitude": 5.1076692,
    "visited": false,
    "rating": "N/A"
  },
  {
    "name": "Boulderhal Sterk Spoor",
    "city": "Utrecht",
    "province": "Utrecht",
    "latitude": 52.1050626,
    "longitude": 5.0820494,
    "visited": false,
    "rating": "N/A"
  },
  {
    "name": "Boulderhal Walhalla",
    "city": "Den Haag",
    "province": "Zuid-Holland",
    "latitude": 52.0616992,
    "longitude": 4.3136623,
    "visited": true,
    "rating": 5
  },
  {
    "name": "Boulderhal Zuidhaven",
    "city": "Utrecht",
    "province": "Utrecht",
    "latitude": 52.0645761,
    "longitude": 5.1039478,
    "visited": false,
    "rating": "N/A"
  },
  {
    "name": "Boulderkerk Venlo",
    "city": "Venlo",
    "province": "Limburg",
    "latitude": 51.3567031,
    "longitude": 6.183003,
    "visited": false,
    "rating": "N/A"
  },
  {
    "name": "Boulderstation",
    "city": "Enschede",
    "province": "Overijssel",
    "latitude": 52.2233143,
    "longitude": 6.8729603,
    "visited": false,
    "rating": "N/A"
  },
  {
    "name": "Cube Bouldergym",
    "city": "Enschede",
    "province": "Overijssel",
    "latitude": 52.2230274,
    "longitude": 6.9033653,
    "visited": false,
    "rating": "N/A"
  },
  {
    "name": "Grip Boulderhal",
    "city": "Nijmegen",
    "province": "Gelderland",
    "latitude": 51.8127732,
    "longitude": 5.8369825,
    "visited": false,
    "rating": "N/A"
  },
  {
    "name": "Gropo Bouldergym",
    "city": "Groningen",
    "province": "Groningen",
    "latitude": 53.2308935,
    "longitude": 6.5888408,
    "visited": false,
    "rating": "N/A"
  },
  {
    "name": "Beest Boulders Het Lab",
    "city": "Amsterdam",
    "province": "Noord-Holland",
    "latitude": 52.3923803,
    "longitude": 4.8508788,
    "visited": false,
    "rating": "N/A"
  },
  {
    "name": "Impact Boulderhal",
    "city": "Almere",
    "province": "Flevoland",
    "latitude": 52.3759045,
    "longitude": 5.2378009,
    "visited": false,
    "rating": "N/A"
  },
  {
    "name": "Kei Boulderhal",
    "city": "Amersfoort",
    "province": "Utrecht",
    "latitude": 52.156822,
    "longitude": 5.3644533,
    "visited": false,
    "rating": "N/A"
  },
  {
    "name": "Kei Boulderhal De Hoef",
    "city": "Amersfoort",
    "province": "Utrecht",
    "latitude": 52.1801889,
    "longitude": 5.414364,
    "visited": false,
    "rating": "N/A"
  },
  {
    "name": "Monk Amsterdam",
    "city": "Amsterdam",
    "province": "Noord-Holland",
    "latitude": 52.383716,
    "longitude": 4.9285531,
    "visited": false,
    "rating": "N/A"
  },
  {
    "name": "Monk Eindhoven",
    "city": "Eindhoven",
    "province": "Noord-Brabant",
    "latitude": 51.4434507,
    "longitude": 5.4582798,
    "visited": false,
    "rating": "N/A"
  },
  {
    "name": "Monk Hilversum",
    "city": "Hilversum",
    "province": "Noord-Holland",
    "latitude": 52.2197772,
    "longitude": 5.1488591,
    "visited": false,
    "rating": "N/A"
  },
  {
    "name": "Monk Rotterdam",
    "city": "Rotterdam",
    "province": "Zuid-Holland",
    "latitude": 51.9418064,
    "longitude": 4.4728726,
    "visited": true,
    "rating": 7
  },
  {
    "name": "Radium Boulders",
    "city": "Maastricht",
    "province": "Limburg",
    "latitude": 50.8567614,
    "longitude": 5.6823573,
    "visited": false,
    "rating": "N/A"
  },
  {
    "name": "Revolt Boulderhal",
    "city": "Delft",
    "province": "Zuid-Holland",
    "latitude": 52.0255472,
    "longitude": 4.3639055,
    "visited": true,
    "rating": 8
  },
  {
    "name": "RijnBoulder",
    "city": "Arnhem",
    "province": "Gelderland",
    "latitude": 51.9627664,
    "longitude": 5.9008776,
    "visited": false,
    "rating": "N/A"
  },
  {
    "name": "The Climbing Corner",
    "city": "Heerlen",
    "province": "Limburg",
    "latitude": 50.8955532,
    "longitude": 5.9562035,
    "visited": false,
    "rating": "N/A"
  },
  {
    "name": "Wildflower Climbing Gym",
    "city": "Leiden",
    "province": "Zuid-Holland",
    "latitude": 52.1593692,
    "longitude": 4.5136562,
    "visited": false,
    "rating": "N/A"
  }
]
